{
   "results" : [
      {
         "address_components" : [
            {
               "long_name" : "116-117",
               "short_name" : "116-117",
               "types" : [ "street_number" ]
            },
            {
               "long_name" : "Zone Industrielle la Lezarde",
               "short_name" : "Zone Industrielle la Lezarde",
               "types" : [ "route" ]
            },
            {
               "long_name" : "Le Lamentin",
               "short_name" : "Le Lamentin",
               "types" : [ "locality", "political" ]
            },
            {
               "long_name" : "Fort-de-France",
               "short_name" : "Fort-de-France",
               "types" : [ "administrative_area_level_1", "political" ]
            },
            {
               "long_name" : "Martinique",
               "short_name" : "MQ",
               "types" : [ "country", "political" ]
            }
         ],
         "formatted_address" : "116-117 Zone Industrielle la Lezarde, Le Lamentin, Martinique",
         "geometry" : {
            "bounds" : {
               "northeast" : {
                  "lat" : 14.60849340,
                  "lng" : -61.00804660000001
               },
               "southwest" : {
                  "lat" : 14.60678280,
                  "lng" : -61.00926860000001
               }
            },
            "location" : {
               "lat" : 14.60830660,
               "lng" : -61.00904680
            },
            "location_type" : "RANGE_INTERPOLATED",
            "viewport" : {
               "northeast" : {
                  "lat" : 14.60898708029150,
                  "lng" : -61.00730861970850
               },
               "southwest" : {
                  "lat" : 14.60628911970850,
                  "lng" : -61.01000658029151
               }
            }
         },
         "types" : [ "street_address" ]
      },
      {
         "address_components" : [
            {
               "long_name" : "Le Lamentin",
               "short_name" : "Le Lamentin",
               "types" : [ "locality", "political" ]
            },
            {
               "long_name" : "Fort-de-France",
               "short_name" : "Fort-de-France",
               "types" : [ "administrative_area_level_1", "political" ]
            },
            {
               "long_name" : "Martinique",
               "short_name" : "MQ",
               "types" : [ "country", "political" ]
            }
         ],
         "formatted_address" : "Le Lamentin, Martinique",
         "geometry" : {
            "bounds" : {
               "northeast" : {
                  "lat" : 14.68191070,
                  "lng" : -60.94631209999999
               },
               "southwest" : {
                  "lat" : 14.559770,
                  "lng" : -61.03815080
               }
            },
            "location" : {
               "lat" : 14.60,
               "lng" : -61.0
            },
            "location_type" : "APPROXIMATE",
            "viewport" : {
               "northeast" : {
                  "lat" : 14.68191070,
                  "lng" : -60.94631209999999
               },
               "southwest" : {
                  "lat" : 14.559770,
                  "lng" : -61.03815080
               }
            }
         },
         "types" : [ "locality", "political" ]
      },
      {
         "address_components" : [
            {
               "long_name" : "Fort-de-France",
               "short_name" : "Fort-de-France",
               "types" : [ "administrative_area_level_1", "political" ]
            },
            {
               "long_name" : "Martinique",
               "short_name" : "MQ",
               "types" : [ "country", "political" ]
            }
         ],
         "formatted_address" : "Fort-de-France, Martinique",
         "geometry" : {
            "bounds" : {
               "northeast" : {
                  "lat" : 14.721730,
                  "lng" : -60.94478909999999
               },
               "southwest" : {
                  "lat" : 14.5603240,
                  "lng" : -61.11873190
               }
            },
            "location" : {
               "lat" : 14.62815430,
               "lng" : -61.07042629999999
            },
            "location_type" : "APPROXIMATE",
            "viewport" : {
               "northeast" : {
                  "lat" : 14.721730,
                  "lng" : -60.94478909999999
               },
               "southwest" : {
                  "lat" : 14.5603240,
                  "lng" : -61.11873190
               }
            }
         },
         "types" : [ "administrative_area_level_1", "political" ]
      },
      {
         "address_components" : [
            {
               "long_name" : "Martinique",
               "short_name" : "MQ",
               "types" : [ "country", "political" ]
            }
         ],
         "formatted_address" : "Martinique",
         "geometry" : {
            "bounds" : {
               "northeast" : {
                  "lat" : 14.87871630,
                  "lng" : -60.81052780
               },
               "southwest" : {
                  "lat" : 14.38864710,
                  "lng" : -61.2290930
               }
            },
            "location" : {
               "lat" : 14.6415280,
               "lng" : -61.0241740
            },
            "location_type" : "APPROXIMATE",
            "viewport" : {
               "northeast" : {
                  "lat" : 14.87871630,
                  "lng" : -60.81052780
               },
               "southwest" : {
                  "lat" : 14.38864710,
                  "lng" : -61.2290930
               }
            }
         },
         "types" : [ "country", "political" ]
      }
   ],
   "status" : "OK"
}
